Time,P (deg/s),Q (deg/s),R (deg/s),P dot (deg/s^2),Q dot (deg/s^2),R dot (deg/s^2),P_{inertial} (deg/s),Q_{inertial} (deg/s),R_{inertial} (deg/s),q bar (psf),Reynolds Number,V_{Total} (ft/s),V_{Inertial} (ft/s),UBody,VBody,WBody,UdotBody,VdotBody,WdotBody,UdotBody_i,VdotBody_i,WdotBody_i,BodyAccel_X,BodyAccel_Y,BodyAccel_Z,Aero V_{X Body} (ft/s),Aero V_{Y Body} (ft/s),Aero V_{Z Body} (ft/s),V_{X_{inertial}} (ft/s),V_{Y_{inertial}} (ft/s),V_{Z_{inertial}} (ft/s),V_{X_{ecef}} (ft/s),V_{Y_{ecef}} (ft/s),V_{Z_{ecef}} (ft/s),V_{North} (ft/s),V_{East} (ft/s),V_{Down} (ft/s),Rho (slugs/ft^3),Absolute Viscosity,Kinematic Viscosity,Temperature (R),P_{SL} (psf),P_{Ambient} (psf),Turbulence Magnitude (ft/sec),Turbulence X Direction (deg),Wind V_{North} (ft/s),Wind V_{East} (ft/s),Wind V_{Down} (ft/s),Roll Turbulence (deg/sec),Pitch Turbulence (deg/sec),Yaw Turbulence (deg/sec),I_{xx},I_{xy},I_{xz},I_{yx},I_{yy},I_{yz},I_{zx},I_{zy},I_{zz},Mass,Weight,X_{cg},Y_{cg},Z_{cg},Altitude ASL (ft),Altitude AGL (ft),Phi (deg),Theta (deg),Psi (deg),Q(1)_{LOCAL},Q(2)_{LOCAL},Q(3)_{LOCAL},Q(4)_{LOCAL},Q(1)_{ECEF},Q(2)_{ECEF},Q(3)_{ECEF},Q(4)_{ECEF},Q(1)_{ECI},Q(2)_{ECI},Q(3)_{ECI},Q(4)_{ECI},Alpha (deg),Beta (deg),Latitude (deg),Latitude Geodetic (deg),Longitude (deg),X_{ECI} (ft),Y_{ECI} (ft),Z_{ECI} (ft),X_{ECEF} (ft),Y_{ECEF} (ft),Z_{ECEF} (ft),Earth Position Angle (deg),Distance AGL (ft),Terrain Elevation (ft),/fdm/jsbsim/sensor/imu/time_us,/fdm/jsbsim/sensor/imu/accelX_true_fps2,/fdm/jsbsim/sensor/imu/accelY_true_fps2,/fdm/jsbsim/sensor/imu/accelZ_true_fps2,/fdm/jsbsim/sensor/gps/time_us,/fdm/jsbsim/sensor/gps/lat_true_rad,/fdm/jsbsim/sensor/gps/long_true_rad,/fdm/jsbsim/sensor/gps/alt_true_m,/fdm/jsbsim/sensor/gps/vNorth_true_mps,/fdm/jsbsim/sensor/gps/vEast_true_mps,/fdm/jsbsim/sensor/gps/vDown_true_mps,/fdm/jsbsim/sensor/pitot/time_us,/fdm/jsbsim/sensor/pitot/presStatic_true_Pa,/fdm/jsbsim/sensor/pitot/presTip_true_Pa,/fdm/jsbsim/sensor/pitot/temp_true_C
0,0,0,0,-2.40200143660595e-06,2.429341999748508e-08,-2.327546695532534e-07,1.739472787576525e-19,-0.002978288855890804,-0.002930204591043608,0,0,0,1087.8321849,0,-0,0,-1.159604522334205e-15,0.1078123347357943,32.05949131017626,1.226461817081123,22.82400028999989,-22.56110397163449,0,0,0,0,-0,0,1086.265011107247,-58.37112436148881,0,0,0,0,0,0,0,0.002249458061,3.699736034e-07,0.0001644723277,511.9966591,2116.228,1976.984648,0,0,0,0,0,0,0,0,0.05273832175,           0,-0.01032494063,           0,0.06369013378,           0,-0.01032494063,           0,0.1133088485,0.1342341375,4.318855716,8.7401574936,0,1.8110236248,1871.4639136009,935.73195679858,-3.337997295762772e-15,-1.350150619848074e-15,89.99999999999999,0.7071067811865476,-1.226634733346699e-17,-2.892901720254185e-17,0.7071067811865475,-0.3863003056770254,0.9219825129489676,-0.02475379482627349,0.01037156168772707,-0.3863003056770254,0.9219825129489676,-0.02475379482627349,0.01037156168772707,0,0,44.533728074265,44.725801,-93.075866,-800469.0595456711,-14896432.80594515,14677075.31380894,-800469.0595456711,-14896432.80594515,14677075.31380894,0,935.73195679858,935.73195680231,0,-3.8089884783336293e-09,3.76935063641752789e-09,-7.16604010380711803e-10,0,0.78061248804177219,-1.62448031584504449,570.422200865551872,0,0,0,0,94658.5389533979032,0,11.2925883730373293
0.02,0.07318070455253385,3.436254610895101e-05,0.01475953460166469,-1.496644373443863,0.01755198287361522,-0.3016051028047062,0.073760051082137,-0.002943926740875321,0.01188717425237504,3.314819481e-10,2.731120705,0.000535435908845,1087.78373873,-1.861079453936799e-06,0.0005354319155094381,-9.015087467838874e-07,7.983649468346934e-05,0.05380766876543625,0.0001471197384045328,0.002343548348232895,0.04161181181671168,-0.03844670355317881,6.339303268331447,-0.05401141973612682,-31.42928558804963,-1.861079453936799e-06,0.0005354319155094381,-9.015087467838874e-07,1086.216678396561,-58.36771204388857,-0.0003813144141032184,-2.216883265555567e-05,-0.0003752325584709686,-0.0003813144141032949,-0.0005354319154848948,-2.002589136507424e-06,-5.1574978905725e-07,0.002312463523,3.718489303e-07,0.0001608020739,515.3307275,2116.228,2045.592859,0,0,0,0,0,0,0,0,0.05273832175,           0,-0.01032494063,           0,0.06369013378,           0,-0.01032494063,           0,0.1133088485,0.1342341375,4.318855716,8.7401574936,0,1.8110236248,936.41968070343,0.68772390112281,-1.559871043703082e-07,11.40339508338394,90.00000063352191,0.7036084561397382,-0.07025051622101326,0.07025051352868429,0.7036084641108237,-0.3819299305523848,0.9163906864207184,-0.0630099781369215,0.1019185000129016,-0.3819299862924286,0.9163907208812956,-0.06300947695494086,0.1019182911321116,0,0,44.533719491973,44.725800999967,-93.075866,-800417.1191938943,-14895770.30210005,14676417.3057186,-800433.412443924,-14895769.42658109,14676417.3057186,6.2671111983606e-05,0.68772390112281,935.73195680231,20000,6.33934218875947231,-0.145292567435042763,-31.4320833884172401,20000,0.780612488041197317,-1.62448031584504338,285.420718678405876,-0.000163199647839795935,-6.10389168807462851e-07,-1.57200535704649792e-07,20000,97943.5179193835065,6.43906431701645113e-08,13.1448486231282882
0.04,0.08190574530662142,0.0001226585911958635,0.0165199888132585,-1.051369769546528,0.001074410795983115,-0.2119951091167518,0.08248507606637465,-0.002855709633704464,0.01364770713420802,1.04674041e-09,4.853225254,0.000951474268589,1087.78373918,-2.125600242858073e-06,0.00095146806132989,2.700718232186952e-06,2.897983699460223e-05,-0.002582805172785155,-0.0001306224916885513,0.004350898067199839,0.08092253490736492,0.001934018982601676,6.339252765888194,-0.1112656496438134,-31.4295595815253,-2.125600242858073e-06,0.00095146806132989,2.700718232186952e-06,1086.216748455809,-58.36641669363681,-0.0006804117877604361,-3.723481878359576e-05,-0.0006640456694619175,-0.0006804117878229889,-0.0009514679783766231,-1.549676971375534e-06,3.093298342491764e-06,0.002312463523,3.718489303e-07,0.0001608020739,515.3307275,2116.228,2045.592859,0,0,0,0,0,0,0,0,0.05273832175,           0,-0.01032494063,           0,0.06369013378,           0,-0.01032494063,           0,0.1133088485,0.1342341375,4.318855716,8.7401574936,0,1.8110236248,936.41968074441,0.687723942101,0.001574459487187503,11.40339694946548,90.00031195489562,0.7036075087087694,-0.0702410501900194,0.07026000251123951,0.7036094091540838,-0.3819423009133777,0.9163854738956314,-0.06301107914256054,0.1019183297941638,-0.3819424309704851,0.9163855543108615,-0.06300990972413259,0.1019178423891266,0,0,44.533719491928,44.725800999922,-93.075866,-800395.3948596858,-14895771.46944245,14676417.30570694,-800433.412444578,-14895769.42659259,14676417.30570694,0.00014623259462841,0.687723942101,935.73195680231,40000,6.33918702916300436,-0.112058271924949576,-31.4294443945034061,40000,0.780612488040413832,-1.62448031584504582,285.420718690896024,-0.000290007439809194709,-4.72341540875262789e-07,9.42837334791489617e-07,40000,97943.5179192375799,5.76855410580987844e-08,13.1448486230471282
0.06,0.05808329548715935,0.0001018425299750677,0.01171491509735683,-1.594950642323085,-0.002421596765177922,-0.3216488099111434,0.05866261084911593,-0.002876602916208134,0.00884271038787959,5.698346607e-10,3.580843861,0.000702024038652,1087.78373951,-1.404465856744825e-06,0.0007020222127800287,7.688202102114393e-07,3.85115252816658e-05,-0.01769150795481508,-4.158567139800906e-05,0.004949399828019113,0.09156169245093411,0.01264526080515681,6.339263165408473,-0.1272193390092481,-31.42946811259299,-1.404465856744825e-06,0.0007020222127800287,7.688202102114393e-07,1086.216843211925,-58.36465929709978,-0.0005011774884305076,-2.760063182643643e-05,-0.0004908126740997897,-0.0005011774885205204,-0.0007020221568710248,-1.224741295507786e-06,1.068739844228027e-06,0.002312463523,3.718489303e-07,0.0001608020739,515.3307275,2116.228,2045.592859,0,0,0,0,0,0,0,0,0.05273832175,           0,-0.01032494063,           0,0.06369013378,           0,-0.01032494063,           0,0.1133088485,0.1342341375,4.318855716,8.7401574936,0,1.8110236248,936.41968069598,0.68772389367223,0.00311487420253915,11.40339936261553,90.00061651294438,0.7036065813759831,-0.07023179340662784,0.07026928903864589,0.7036103331728031,-0.3819544021952198,0.9163803738957983,-0.06301215819670788,0.1019181680237506,-0.3819546065690716,0.9163805002664788,-0.06301032054919457,0.1019174020769413,0,0,44.533719491882,44.725800999876,-93.075866,-800373.6705237792,-14895772.63675337,14676417.30569495,-800433.4124452365,-14895769.42660431,14676417.30569495,0.00022979407727322,0.68772389367223,935.73195680231,59999.9999999999927,6.33924972864091529,-0.125857019975027185,-31.4294633600693913,59999.9999999999927,0.780612488039612362,-1.62448031584504782,285.420718676134982,-0.000213976353414288366,-3.73301146870773232e-07,3.2575190452070248e-07,59999.9999999999927,97943.5179194100929,3.49261830886267645e-08,13.1448486231430675
0.08,0.02693406699799151,4.895545082095836e-05,0.005432914905345266,-1.387632151168122,-0.002774735914967494,-0.2799456688353756,0.02751337275558026,-0.002929538193119769,0.0025607582399669,1.2661208e-10,1.687907042,0.000330913986978,1087.78374014,-6.485058950453151e-07,0.000330913273603337,2.270928551375564e-07,3.460233184557822e-05,-0.01721306184799068,1.210249937180405e-07,0.004937194678422259,0.09125546439743605,0.01227557176007996,6.339259877077978,-0.1272683053282432,-31.42942501751978,-6.485058950453151e-07,0.000330913273603337,2.270928551375564e-07,1086.216942902268,-58.36281576751593,-0.0002361497139923668,-1.30285993855531e-05,-0.0002314468296539741,-0.0002361497140431208,-0.0003309132483601078,-5.908080201821754e-07,3.739078998013663e-07,0.002312463523,3.718489303e-07,0.0001608020739,515.3307275,2116.228,2045.592859,0,0,0,0,0,0,0,0,0.05273832175,           0,-0.01032494063,           0,0.06369013378,           0,-0.01032494063,           0,0.1133088485,0.1342341375,4.318855716,8.7401574936,0,1.8110236248,936.4196806848,0.68772388249636,0.004076347456002238,11.40340099701316,90.00080660829732,0.7036060024158317,-0.07022601645144796,0.07027508617154973,0.7036109097714102,-0.3819619552846503,0.9163771904520712,-0.06301283214410978,0.1019180680998039,-0.3819622339764648,0.9163773627746103,-0.06301032626992015,0.1019170236063537,0,0,44.533719491854,44.725800999848,-93.075866,-800351.9461859155,-14895773.80402808,14676417.30568763,-800433.4124456402,-14895769.42661148,14676417.30568763,0.00031335555991803,0.68772388249636,935.73195680231,80000,6.33925356637979931,-0.128099245186548999,-31.4294134977873583,80000,0.780612488039122199,-1.62448031584504893,285.420718672728526,-0.00010086235810016085,-1.80078284551527058e-07,1.1396712785945646e-07,80000,97943.5179194498342,9.81465654911751351e-09,13.1448486231651724
0.1,0.003350620304816826,3.630406381522055e-06,0.0006759266131850145,-0.8062878808168046,-0.001594543025892905,-0.1626235745085327,0.003929922485458827,-0.002974881182444719,-0.002196212164290649,2.3798551e-12,0.2314121787,4.53683317585e-05,1087.78374067,-7.800927778757591e-08,4.536817149732498e-05,9.195701183990193e-08,2.204424929625483e-05,-0.01073995155909098,2.390312813575384e-06,0.004681811765473822,0.08672638305230722,0.007657831582397565,6.339247515420616,-0.1209915626696707,-31.42942217955052,-7.800927778757591e-08,4.536817149732498e-05,9.195701183990193e-08,1086.217039284849,-58.36103184822949,-3.241659302737797e-05,-1.761332114544431e-06,-3.169144572625536e-05,-3.241659303453082e-05,-4.536816336229999e-05,-5.828852112139223e-08,1.090072670667717e-07,0.002312463523,3.718489303e-07,0.0001608020739,515.3307275,2116.228,2045.592859,0,0,0,0,0,0,0,0,0.05273832175,           0,-0.01032494063,           0,0.06369013378,           0,-0.01032494063,           0,0.1133088485,0.1342341375,4.318855716,8.7401574936,0,1.8110236248,936.41968068108,0.68772387877107,0.004434325453688292,11.40340158906304,90.00087738909298,0.7036057868273389,-0.07022386546699123,0.07027724447398356,0.7036111244728693,-0.381964767466955,0.9163760051821477,-0.06301308304799916,0.1019180307556918,-0.3819651204774412,0.9163762234535577,-0.06300990894496007,0.1019167077211768,0,0,44.533719491844,44.725800999838,-93.075866,-800330.2218460841,-14895774.97126639,14676417.30568511,-800433.4124457786,-14895769.42661395,14676417.30568511,0.00039691704256284,0.68772387877107,935.73195680231,100000.000000000015,6.33924521560877885,-0.122717177817560669,-31.4294138550223039,100000.000000000015,0.780612488038953556,-1.62448031584504937,285.420718671593079,-1.38282161928290372e-05,-1.7766341237800352e-08,3.32254150019520251e-08,100000.000000000015,97943.5179194631201,5.9662930955895274e-10,13.1448486231725621
0.12,-0.008402385673886532,-1.873597658971818e-05,-0.001694615660787492,-0.2574456894761087,-0.0004885329353913583,-0.05192841071000596,-0.007823083091088187,-0.002997245531191808,-0.004566756466713429,1.127189627e-11,0.5036275103,9.87361170995e-05,1087.78374094,2.053438747478523e-07,-9.873589325746769e-05,4.512675685412163e-08,9.070802358520361e-06,-0.003981406233754051,-4.688441277401765e-07,0.004414119840084299,0.08199417294044951,0.002839881493112539,6.339234468283071,-0.1142107571264723,-31.42942511932253,2.053438747478523e-07,-9.873589325746769e-05,4.512675685412163e-08,1086.217130084613,-58.35934686015658,7.038533494474001e-05,3.925400218055323e-06,6.913260213307997e-05,7.038533496030899e-05,9.873589326034402e-05,2.102136690711527e-07,-3.78587134888581e-09,0.002312463523,3.718489303e-07,0.0001608020739,515.3307275,2116.228,2045.592859,0,0,0,0,0,0,0,0,0.05273832175,           0,-0.01032494063,           0,0.06369013378,           0,-0.01032494063,           0,0.1133088485,0.1342341375,4.318855716,8.7401574936,0,1.8110236248,936.41968067735,0.68772387504578,0.004393745079671193,11.40340145842993,90.00086936815019,0.7036058112889439,-0.07022410891407593,0.07027699941706678,0.7036111001908182,-0.3819644487113711,0.9163761396017797,-0.06301305441611806,0.101918034471503,-0.3819648760405912,0.9163764038204133,-0.06300921208041559,0.1019164329049348,0,0,44.533719491846,44.725800999841,-93.075866,-800308.4975043813,-14895776.13847001,14676417.30568565,-800433.4124457479,-14895769.42661341,14676417.30568565,0.00048047852520765,0.68772387504578,935.73195680231,120000.000000000044,6.33923323657514448,-0.115730322074938968,-31.4294189924242566,120000.000000000044,0.780612488038989971,-1.62448031584504937,285.420718670457632,3.0094700265752862e-05,6.40731263328873641e-08,-1.15393358714039509e-09,120000.000000000044,97943.517919476406,3.14206990546790813e-10,13.1448486231799517
0.14,-0.01064254607585624,-2.256560907745006e-05,-0.002146491127929215,0.08081948872604915,3.832453143249132e-05,0.01629766529832678,-0.0100632414562538,-0.003001064920913429,-0.005018642145109387,1.886861299e-11,0.6515997993,0.000127746067819,1087.78374099,2.652189991757242e-07,-0.0001277457908934531,-2.027431047619242e-08,-1.083004499207767e-06,0.000476145865923705,1.809566172766894e-05,0.004240793207719854,0.07888743619602591,-0.0003520403925590665,6.339224147559208,-0.1096411200986304,-31.42940697178757,2.652189991757242e-07,-0.0001277457908934531,-2.027431047619242e-08,1086.217216330177,-58.35774243761627,9.111916438158952e-05,5.059827406840919e-06,8.939101673048046e-05,9.111916440190953e-05,0.0001277457853935888,2.559763571822478e-07,-8.146826376041292e-08,0.002312463523,3.718489303e-07,0.0001608020739,515.3307275,2116.228,2045.592859,0,0,0,0,0,0,0,0,0.05273832175,           0,-0.01032494063,           0,0.06369013378,           0,-0.01032494063,           0,0.1133088485,0.1342341375,4.318855716,8.7401574936,0,1.8110236248,936.41968068108,0.68772387877107,0.004189414433006133,11.40340102698619,90.00082897089769,0.7036059343802509,-0.07022533610477667,0.07027576690062533,0.7036109777230964,-0.3819628435924083,0.9163768162282484,-0.06301291092171928,0.1019180550260756,-0.3819633452402116,0.9163771263930974,-0.06300840035044911,0.1019161749341871,0,0,44.533719491853,44.725800999847,-93.075866,-800286.7731609113,-14895777.30564081,14676417.30568737,-800433.4124456521,-14895769.42661173,14676417.30568737,0.00056404000785245,0.68772387877107,935.73195680231,140000.000000000029,6.33922643248347217,-0.110525803713895976,-31.4294425913573789,140000.000000000029,0.780612488039104879,-1.62448031584504893,285.420718671593079,3.89369153879658546e-05,7.80215936691491211e-08,-2.48315267941738609e-08,140000.000000000029,97943.5179194631201,9.1313567233134027e-10,13.1448486231725621
0.16,-0.007819368083078888,-1.617295482550303e-05,-0.001576746253245422,0.2031160995743914,0.0003818520685390211,0.04094126350786539,-0.007240061427705641,-0.002994662031845413,-0.00444890747356959,1.038987241e-11,0.4835218013,9.47943950849e-05,1087.78374092,1.952835757203201e-07,-9.479418883774119e-05,-3.108737132229481e-08,-4.438449242058318e-06,0.002298693068810267,7.76758349025672e-06,0.004166428629897804,0.07760470843416285,-0.001644664599475903,6.3392206443498,-0.1077065753297863,-31.42941773313629,1.952835757203201e-07,-9.479418883774119e-05,-3.108737132229481e-08,1086.217300129039,-58.3561813420009,6.762586398164299e-05,3.749426219016886e-06,6.632240694692346e-05,6.762586399684564e-05,9.479418391554822e-05,1.852832195908596e-07,-7.554759285599792e-08,0.002312463523,3.718489303e-07,0.0001608020739,515.3307275,2116.228,2045.592859,0,0,0,0,0,0,0,0,0.05273832175,           0,-0.01032494063,           0,0.06369013378,           0,-0.01032494063,           0,0.1133088485,0.1342341375,4.318855716,8.7401574936,0,1.8110236248,936.41968068108,0.68772387877107,0.00398524310592357,11.40340061189553,90.00078861001305,0.7036060573336416,-0.07022656244060557,0.07027453544120318,0.7036108553686972,-0.3819612397114729,0.9163774923105589,-0.06301276763187839,0.1019180756770939,-0.381961815677687,0.9163778484209273,-0.06300758882402333,0.1019159170621649,0,0,44.533719491859,44.725800999853,-93.075866,-800265.0488157442,-14895778.47278001,14676417.30568899,-800433.4124455616,-14895769.42661013,14676417.30568899,0.00064760149049726,0.68772387877107,935.73195680231,160000.000000000058,6.33922093555908805,-0.107988329809322395,-31.4294349776387811,160000.000000000058,0.780612488039213681,-1.62448031584504871,285.420718671593079,2.88932672574590996e-05,5.64743253312940221e-08,-2.3026906302508167e-08,160000.000000000058,97943.5179194631201,6.22147404085945764e-10,13.1448486231725621
0.18,-0.003743064048242812,-7.971952084915181e-06,-0.000755563913359115,0.1842749129918479,0.0004322626689003068,0.03726062339039143,-0.003163756089449197,-0.002986454477255276,-0.003627731665174765,2.446277351e-12,0.2346193356,4.59970945143e-05,1087.78374084,9.326454931159257e-08,-4.599694441711808e-05,7.148264417718088e-08,-6.768383578543028e-06,0.002288176400957312,-2.667468870552619e-06,0.004162001050506987,0.07760534734348498,-0.001630306328545092,6.339218226602575,-0.107645396603079,-31.42942844711671,9.326454931159257e-08,-4.599694441711808e-05,7.148264417718088e-08,1086.217383325041,-58.3546312586285,3.275428093077314e-05,1.838223518641533e-06,3.224144411704862e-05,3.275428093816638e-05,4.599694772597219e-05,1.05557225036881e-07,4.859835398704583e-08,0.002312463523,3.718489303e-07,0.0001608020739,515.3307275,2116.228,2045.592859,0,0,0,0,0,0,0,0,0.05273832175,           0,-0.01032494063,           0,0.06369013378,           0,-0.01032494063,           0,0.1133088485,0.1342341375,4.318855716,8.7401574936,0,1.8110236248,936.4196806848,0.68772388249636,0.003854542580015068,11.40340035238656,90.00076277475704,0.7036061360262508,-0.07022734752059534,0.07027374715831526,0.7036107770494858,-0.3819602129797345,0.9163779250986013,-0.06301267594006399,0.1019180889408714,-0.3819608632641646,0.9163783271540616,-0.06300682889616104,0.1019156518015109,0,0,44.533719491863,44.725800999857,-93.075866,-800243.3244689101,-14895779.63988814,14676417.30568999,-800433.4124455062,-14895769.42660915,14676417.30568999,0.00073116297314207,0.68772388249636,935.73195680231,180000.000000000087,6.33922098206272544,-0.107562117934699109,-31.4294188357960351,180000.000000000087,0.780612488039280628,-1.62448031584504848,285.420718672728526,1.40198696668763234e-05,3.21738421912413221e-08,1.48127782952515685e-08,180000.000000000087,97943.5179194498342,1.85360129000874676e-10,13.1448486231651724
0.2,-0.0005755597540469786,-1.380732855243545e-06,-0.0001163212263931435,0.110188074423469,0.0001954254211032911,0.02222228428663834,3.748712380778682e-06,-0.002979860709070253,-0.002988491519125541,6.718639455e-14,0.03888227087,7.62286485801e-06,1087.78374075,9.169292452023839e-09,-7.622651657243491e-06,5.62697065423084e-08,-3.107329228411343e-06,0.001462374200044803,-3.884406087444516e-08,0.004197131404384912,0.07818473501413813,-0.001042901486824233,6.339221856904214,-0.1084433062131292,-31.42942592530749,9.169292452023839e-09,-7.622651657243491e-06,5.62697065423084e-08,1086.217466900717,-58.35307396078938,5.396651729300547e-06,3.089624293369756e-07,5.374826599374105e-06,5.396651730520694e-06,7.622655113299282e-06,2.011376863595699e-08,5.284994434035427e-08,0.002312463523,3.718489303e-07,0.0001608020739,515.3307275,2116.228,2045.592859,0,0,0,0,0,0,0,0,0.05273832175,           0,-0.01032494063,           0,0.06369013378,           0,-0.01032494063,           0,0.1133088485,0.1342341375,4.318855716,8.7401574936,0,1.8110236248,936.41968068108,0.68772387877107,0.003803694452219276,11.40340025440507,90.0007527159156,0.7036061666869805,-0.07022765296405735,0.07027344050550742,0.7036107465298845,-0.3819598135406852,0.916378093467863,-0.06301264021532101,0.1019180941513435,-0.3819605381431054,0.9163785414681556,-0.06300612493658797,0.101915378484539,0,0,44.533719491864,44.725800999859,-93.075866,-800221.6001204092,-14895780.80696522,14676417.30569035,-800433.4124454858,-14895769.4266088,14676417.30569035,0.00081472445578688,0.68772387877107,935.73195680231,200000.000000000087,6.33922168085467863,-0.108222029391497637,-31.4294223112643785,200000.000000000087,0.780612488039304941,-1.62448031584504826,285.420718671593079,2.32338527853362125e-06,6.13067668023969157e-09,1.6108663034939984e-08,200000.000000000087,97943.5179194631201,1.33663610690857687e-11,13.1448486231725621
0.22,0.001048922026201117,3.241757764252343e-06,0.0002113369433501232,0.03720573830003687,-9.360494324917622e-07,0.007507326844265257,0.001628230461375556,-0.002975238377445036,-0.002660833190807543,1.745116066e-13,0.06266472119,1.22854115849e-05,1087.7837407,-4.723533296267581e-08,1.228516817604166e-05,6.123332446915939e-08,-8.986063004882765e-07,0.0005656826788147939,-2.565453609984208e-07,0.004232845853623349,0.07881209321679328,-0.0004032091402975668,6.339224071453866,-0.1093417375599784,-31.42942613560532,-4.723533296267581e-08,1.228516817604166e-05,6.123332446915939e-08,1086.217551200508,-58.35150372277957,-8.80653730635588e-06,-4.937791499454223e-07,-8.551749565570071e-06,-8.806537308349358e-06,-1.228516363326866e-05,-3.41962454466334e-08,7.016384473892744e-08,0.002312463523,3.718489303e-07,0.0001608020739,515.3307275,2116.228,2045.592859,0,0,0,0,0,0,0,0,0.05273832175,           0,-0.01032494063,           0,0.06369013378,           0,-0.01032494063,           0,0.1133088485,0.1342341375,4.318855716,8.7401574936,0,1.8110236248,936.41968068108,0.68772387877107,0.003806866157265924,11.40340026353715,90.00075333824937,0.7036061648039876,-0.07022763392711615,0.07027345965495899,0.7036107484004854,-0.3819598384581083,0.9163780829624102,-0.06301264241293517,0.1019180938676716,-0.381960637378283,0.9163785769072856,-0.06300545890049566,0.1019150996706257,0,0,44.533719491864,44.725800999858,-93.075866,-800199.8757702294,-14895781.97401102,14676417.3056903,-800433.4124454891,-14895769.42660885,14676417.3056903,0.00089828593843169,0.68772387877107,935.73195680231,220000.000000000116,6.33922255621575204,-0.109139403101431692,-31.4294218508000398,220000.000000000116,0.780612488039301278,-1.62448031584504826,285.420718671593079,-3.74451787542028678e-06,-1.04230156121338596e-08,2.1385939876425084e-08,220000.000000000116,97943.5179194631201,4.47214613276462068e-12,13.1448486231725621
0.24,0.001396929089913533,3.922436998517256e-06,0.0002816035301023305,-0.00882303457059886,-0.0001200875251101972,-0.001771269852870397,0.001976237265072808,-0.002974559011166935,-0.002590565294946227,3.237586707e-13,0.08535356349,1.67335565815e-05,1087.78374069,-5.778107428424463e-08,1.673334862688621e-05,6.017429017007785e-08,1.12486964558923e-06,-3.454093617817622e-05,-6.514254978114566e-07,0.004257182940575743,0.07923175720968387,2.523228097205121e-05,6.339226125763655,-0.1099563285171708,-31.42942647383643,-5.778107428424463e-08,1.673334862688621e-05,6.017429017007785e-08,1086.217636122723,-58.34992267168224,-1.197831120858649e-05,-6.716536938634266e-07,-1.166537002288628e-05,-1.197831121130143e-05,-1.673334397483642e-05,-4.474324585303927e-08,7.150798472727881e-08,0.002312463523,3.718489303e-07,0.0001608020739,515.3307275,2116.228,2045.592859,0,0,0,0,0,0,0,0,0.05273832175,           0,-0.01032494063,           0,0.06369013378,           0,-0.01032494063,           0,0.1133088485,0.1342341375,4.318855716,8.7401574936,0,1.8110236248,936.41968068108,0.68772387877107,0.003833057794574038,11.40340033640267,90.00075851279075,0.7036061490384338,-0.07022747672797,0.0702736177520316,0.7036107640660857,-0.3819600441998517,0.9163779962155477,-0.06301266083540197,0.1019180913855323,-0.3819609174375581,0.9163785361046624,-0.06300480908989099,0.101914818656605,0,0,44.533719491863,44.725800999858,-93.075866,-800178.1514183569,-14895783.14102529,14676417.30569008,-800433.4124455014,-14895769.42660907,14676417.30569008,0.0009818474210765,0.68772387877107,935.73195680231,240000.000000000116,6.33922397131525361,-0.109845402318670002,-31.4294192461183606,240000.000000000116,0.780612488039286512,-1.62448031584504848,285.420718671593079,-5.10032324353014165e-06,-1.36377413360063694e-08,2.17956337448745808e-08,240000.000000000116,97943.5179194631201,1.55097064829715712e-11,13.1448486231725621
0.26,0.001053809486845914,1.051136064106626e-06,0.0002117738586564052,-0.02627421249030054,0.0001117543658186432,-0.005302758476034386,0.001633117392438065,-0.002977431667680539,-0.00266039361500768,1.87643205e-13,0.06497965102,1.27392533185e-05,1087.78374072,-2.295604062198648e-08,1.273904110714199e-05,6.985558965465112e-08,-2.437822295169784e-07,-0.0002948568578404198,-9.543875114417843e-06,0.004263440825863569,0.07940820901636425,0.0002167307551298042,6.339224777051048,-0.1102314782048428,-31.42943531056275,-2.295604062198648e-08,1.273904110714199e-05,6.985558965465112e-08,1086.217721406804,-58.34833570980897,-9.13266476987358e-06,-4.852500444009833e-07,-8.868344924908636e-06,-9.132664771946217e-06,-1.273903625866234e-05,-8.691487997658442e-09,7.385667210312212e-08,0.002312463523,3.718489303e-07,0.0001608020739,515.3307275,2116.228,2045.592859,0,0,0,0,0,0,0,0,0.05273832175,           0,-0.01032494063,           0,0.06369013378,           0,-0.01032494063,           0,0.1133088485,0.1342341375,4.318855716,8.7401574936,0,1.8110236248,936.41968068108,0.68772387877107,0.003860099714201864,11.4034003913923,90.00076385720421,0.7036061327618512,-0.07022731430241082,0.07027378085612106,0.703610780264208,-0.3819602566305424,0.9163779066707217,-0.06301267980359844,0.1019180886545874,-0.3819612041855713,0.9163784925036205,-0.06300415982513498,0.1019145373933621,0,0,44.533719491863,44.725800999857,-93.075866,-800156.427064782,-14895784.30800788,14676417.30568986,-800433.4124455134,-14895769.42660928,14676417.30568986,0.0010654089037213,0.68772387877107,935.73195680231,260000.000000000116,6.33922638422710349,-0.110192207287183916,-31.4294213106767941,260000.000000000116,0.780612488039272079,-1.62448031584504848,285.420718671593079,-3.88285825164027981e-06,-2.64916554168629314e-09,2.25115136570316222e-08,260000.000000000116,97943.5179194631201,1.11127895882108867e-11,13.1448486231725621
0.28,0.0005186842950089752,6.828135898913163e-07,0.0001046738809465788,-0.0248113017729478,-0.0001594014075145872,-0.004968092626928607,0.001097992023177616,-0.002977800880297617,-0.002767492705411745,4.681422881e-14,0.03245636585,6.36306689744e-06,1087.78374072,-6.1475326919395e-09,6.363063917651758e-06,3.591237422787742e-10,1.880000276004381e-07,-0.0003043684284199238,6.477563272527618e-06,0.004267865185838579,0.07942580222193041,0.0002125577216775532,6.339225212439335,-0.1102507303865495,-31.42941925451204,-6.1475326919395e-09,6.363063917651758e-06,3.591237422787742e-10,1086.217806742049,-58.34674713092555,-4.537227989257236e-06,-2.453257050734977e-07,-4.45443574575111e-06,-4.537227990288209e-06,-6.363063800306997e-06,-5.955244715988929e-09,1.989656476867565e-09,0.002312463523,3.718489303e-07,0.0001608020739,515.3307275,2116.228,2045.592859,0,0,0,0,0,0,0,0,0.05273832175,           0,-0.01032494063,           0,0.06369013378,           0,-0.01032494063,           0,0.1133088485,0.1342341375,4.318855716,8.7401574936,0,1.8110236248,936.41968068108,0.68772387877107,0.003877856830378892,11.40340041082749,90.00076735829799,0.7036061221351275,-0.07022720753794889,0.07027388786138732,0.7036107908598429,-0.3819603961385395,0.9163778478847976,-0.06301269213682457,0.101918086756063,-0.3819614180106926,0.9163784796609531,-0.06300350392519739,0.1019142569629071,0,0,44.533719491862,44.725800999856,-93.075866,-800134.7027095004,-14895785.47495871,14676417.30568972,-800433.4124455207,-14895769.42660942,14676417.30568972,0.0011489703863661,0.68772387877107,935.73195680231,280000.000000000116,6.33922686738286512,-0.110259467828582008,-31.4294321159918439,280000.000000000116,0.780612488039262753,-1.62448031584504848,285.420718671593079,-1.9394618463335727e-06,-1.81515858943342584e-09,6.06447294149233941e-10,280000.000000000116,97943.5179194631201,3.49065680867737278e-12,13.1448486231725621
0.3,9.097076035339258e-05,-1.360317728881734e-06,1.883154002757475e-05,-0.0148008057796218,0.0001770126486993841,-0.002987258516262966,0.000670278416281775,-0.00297984437028841,-0.002853334688953422,1.698809324e-15,0.006182772569,1.21213187101e-06,1087.78374074,-3.296639344488188e-09,1.209495655350061e-06,7.983147610632942e-08,9.699181673312637e-07,-0.0001967344504089502,-1.173743012642326e-05,0.004260180749189908,0.07933776681629716,0.0001484572976651749,6.339225992373795,-0.1101470212676964,-31.42943745623574,-3.296639344488188e-09,1.209495655350061e-06,7.983147610632942e-08,1086.217892050423,-58.3451593028687,-9.175669069006533e-07,-2.996009276962789e-08,-7.914777551341161e-07,-9.175669071093937e-07,-1.209490408167195e-06,1.255234599471621e-08,7.898774724464955e-08,0.002312463523,3.718489303e-07,0.0001608020739,515.3307275,2116.228,2045.592859,0,0,0,0,0,0,0,0,0.05273832175,           0,-0.01032494063,           0,0.06369013378,           0,-0.01032494063,           0,0.1133088485,0.1342341375,4.318855716,8.7401574936,0,1.8110236248,936.41968068108,0.68772387877107,0.003885011836625239,11.40340041292262,90.00076877808652,0.7036061178010894,-0.07022716448889262,0.07027393093703352,0.7036107951884335,-0.38196045234827,0.9163778242039584,-0.0630126971599167,0.1019180859145885,-0.381961548537353,0.9163785019228222,-0.0630028407148005,0.1019139775901403,0,0,44.533719491862,44.725800999856,-93.075866,-800112.9783525123,-14895786.64187778,14676417.30568967,-800433.4124455233,-14895769.42660947,14676417.30568967,0.0012325318690109,0.68772387877107,935.73195680231,300000.000000000175,6.33922443533335045,-0.110177143671719005,-31.429418633936919,300000.000000000175,0.780612488039259311,-1.62448031584504848,285.420718671593079,-3.68652676409360993e-07,3.82595505918950053e-09,2.40754653601691839e-08,300000.000000000175,97943.5179194631201,2.87031606088048455e-13,13.1448486231725621
0.32,-0.0001290983305198106,-8.786688223388203e-08,-2.559821339596457e-05,-0.005349156547062905,-0.0001322468395967503,-0.001065289489392567,0.0004502093257415181,-0.002978571912397807,-0.002897764449615315,2.606265668e-15,0.007658086985,1.50136709741e-06,1087.78374073,3.694730671171683e-09,-1.501360801117393e-06,2.29238310629847e-09,-2.371123256872708e-07,-7.749731887617128e-05,6.147064981176722e-06,0.004258608759294226,0.07926679819613552,5.09931677881853e-05,6.339224778781131,-0.1100277070505345,-31.42941957333761,3.694730671171683e-09,-1.501360801117393e-06,2.29238310629847e-09,1086.21797723173,-58.3435732939493,1.069233175545615e-06,6.062266482149527e-08,1.052220732547166e-06,1.069233175789144e-06,1.501360898727833e-06,4.075051742294146e-09,1.416836173735199e-09,0.002312463523,3.718489303e-07,0.0001608020739,515.3307275,2116.228,2045.592859,0,0,0,0,0,0,0,0,0.05273832175,           0,-0.01032494063,           0,0.06369013378,           0,-0.01032494063,           0,0.1133088485,0.1342341375,4.318855716,8.7401574936,0,1.8110236248,936.41968068108,0.68772387877107,0.00388487131092248,11.40340040138129,90.00076876019307,0.7036061178319584,-0.07022716526989331,0.07027393001427931,0.7036107951718696,-0.3819604512435726,0.9163778246805255,-0.06301269710304883,0.1019180858053994,-0.3819616217493897,0.9163785483415592,-0.06300217242416721,0.101913698950181,0,0,44.533719491862,44.725800999856,-93.075866,-800091.2539938197,-14895787.8087651,14676417.30568967,-800433.4124455231,-14895769.42660946,14676417.30568967,0.0013160933516557,0.68772387877107,935.73195680231,320000.000000000175,6.33922532451703979,-0.110058265155228166,-31.4294256457167052,320000.000000000175,0.780612488039259533,-1.62448031584504848,285.420718671593079,4.57614801932243434e-07,1.24207577105125566e-09,4.31851665754488638e-10,320000.000000000175,97943.5179194631201,5.79502310240257098e-14,13.1448486231725621
0.34,-0.0001817304887434616,1.067382043090111e-07,-3.646101985626379e-05,0.0007702115722761328,6.812676556595918e-07,0.000192915859977007,0.0003975772006176539,-0.002978377140525708,-0.002908627422359669,5.582193109e-15,0.01120761959,2.19725256732e-06,1087.78374073,-6.533123596595526e-10,-2.197222829174366e-06,-1.141300792891062e-08,2.023405579987874e-07,6.738954236931716e-06,5.885394524762908e-07,0.004254445832796896,0.0792039113069874,-5.175484280722786e-06,6.339225219518511,-0.1099416456782362,-31.42942513799014,-6.533123596595526e-10,-2.197222829174366e-06,-1.141300792891062e-08,1086.218062338912,-58.34198864989104,1.574121031380188e-06,7.936466338370647e-08,1.530935358973543e-06,1.574121031739127e-06,2.197222090234138e-06,-2.896918587035862e-09,-1.120445280859121e-08,0.002312463523,3.718489303e-07,0.0001608020739,515.3307275,2116.228,2045.592859,0,0,0,0,0,0,0,0,0.05273832175,           0,-0.01032494063,           0,0.06369013378,           0,-0.01032494063,           0,0.1133088485,0.1342341375,4.318855716,8.7401574936,0,1.8110236248,936.41968068108,0.68772387877107,0.003881544159623544,11.40340040166572,90.00076811087779,0.7036061197796963,-0.07022718530255263,0.0702739099847027,0.7036107932252625,-0.3819604250970975,0.9163778356926112,-0.06301269485887047,0.1019180861699333,-0.3819616699194512,0.9163786052953007,-0.06300150194606052,0.101913420784198,0,0,44.533719491862,44.725800999856,-93.075866,-800069.5296334238,-14895788.97562072,14676417.3056897,-800433.4124455216,-14895769.42660943,14676417.3056897,0.0013996548343005,0.68772387877107,935.73195680231,340000.000000000175,6.33922404816269047,-0.109968889731840866,-31.4294215899015974,340000.000000000175,0.780612488039261532,-1.62448031584504848,285.420718671593079,6.69713293103365403e-07,-8.82980785328530773e-10,-3.41511721605860154e-09,340000.000000000175,97943.5179194631201,2.4941321303577275e-13,13.1448486231725621
0.36,-0.0001405643234829258,-7.082169557746728e-08,-2.821172368069051e-05,0.003419599030760565,0.0001780259614461355,0.0006690898441005152,0.0004387434015018335,-0.002978554522333796,-0.002900378303683836,3.328093038e-15,0.008653836442,1.69658366698e-06,1087.78374073,-9.654022135090362e-09,-1.695751405949829e-06,5.225043676119844e-08,9.027827725534728e-07,3.706614714477086e-05,-1.530117964645659e-05,0.004250137396124386,0.07917162535450969,-1.577494292717696e-05,6.339225921841032,-0.1099093696656451,-31.42944103415428,-9.654022135090362e-09,-1.695751405949829e-06,5.225043676119844e-08,1086.218147412405,-58.34040479010056,1.171617151598359e-06,6.670859390099532e-08,1.225258892102649e-06,1.171617151865829e-06,1.695754927299003e-06,8.672958402558881e-10,5.301522481450639e-08,0.002312463523,3.718489303e-07,0.0001608020739,515.3307275,2116.228,2045.592859,0,0,0,0,0,0,0,0,0.05273832175,           0,-0.01032494063,           0,0.06369013378,           0,-0.01032494063,           0,0.1133088485,0.1342341375,4.318855716,8.7401574936,0,1.8110236248,936.41968068108,0.68772387877107,0.003877991464496837,11.40340040266559,90.00076741273512,0.7036061218885792,-0.07022720669452796,0.0702738886045671,0.7036107911167261,-0.3819603971812094,0.9163778474499938,-0.06301269242631893,0.1019180865809876,-0.3819617163198978,0.9163786629938461,-0.06300083127952148,0.1019131426647422,0,0,44.533719491862,44.725800999856,-93.075866,-800047.8052713263,-14895790.14244465,14676417.30568973,-800433.4124455201,-14895769.42660941,14676417.30568973,0.0014832163169453,0.68772387877107,935.73195680231,360000.000000000233,6.33922344050592468,-0.109915072665643099,-31.4294173115922035,360000.000000000233,0.780612488039263419,-1.62448031584504848,285.420718671593079,5.1686610184073625e-07,2.6435177210999469e-10,1.6159040523461546e-08,360000.000000000233,97943.5179194631201,1.9493548398506057e-13,13.1448486231725621
0.38,-7.070163140125578e-05,8.629719120932037e-07,-1.425332536874609e-05,0.003025869247302786,-0.0001072530587058973,0.0005970442894666276,0.0005086061179432922,-0.002977620608820499,-0.002886420024803492,8.705910271e-16,0.004426067642,8.67730066399e-07,1087.78374072,2.153270950328118e-09,-8.662889445382147e-07,-4.994292871403413e-08,-3.913621386302167e-07,3.671051779383094e-05,5.82720052228491e-06,0.004253741655038149,0.07918665022602178,-3.022529942499352e-05,6.339224632328881,-0.1099084131917163,-31.42941990943816,2.153270950328118e-09,-8.662889445382147e-07,-4.994292871403413e-08,1086.218232452502,-58.33882127786892,6.521950386423408e-07,2.295650586148054e-08,5.719004271025314e-07,6.52195038791405e-07,8.662856684173895e-07,-7.763717580139594e-09,-4.944020317030258e-08,0.002312463523,3.718489303e-07,0.0001608020739,515.3307275,2116.228,2045.592859,0,0,0,0,0,0,0,0,0.05273832175,           0,-0.01032494063,           0,0.06369013378,           0,-0.01032494063,           0,0.1133088485,0.1342341375,4.318855716,8.7401574936,0,1.8110236248,936.41968068108,0.68772387877107,0.003875599503794046,11.40340040935388,90.00076694124481,0.703606123313647,-0.07022722113337661,0.07027387424755353,0.703610789684547,-0.3819603783837113,0.9163778553605023,-0.06301269079700812,0.1019180869107156,-0.3819617718385306,0.9163787168450375,-0.06300016141622511,0.101912864463822,0,0,44.533719491862,44.725800999856,-93.075866,-800026.0809075278,-14895791.30923691,14676417.30568975,-800433.4124455194,-14895769.42660939,14676417.30568975,0.0015667777995902,0.68772387877107,935.73195680231,380000.000000000233,6.33922604551706037,-0.109903283711645913,-31.4294317186824941,380000.000000000233,0.780612488039264529,-1.62448031584504848,285.420718671593079,2.64043871733620358e-07,-2.36638111842654849e-09,-1.50693739263082271e-08,380000.000000000233,97943.5179194631201,6.43003074411109901e-14,13.1448486231725621
0.4,-1.662337647557107e-05,-4.985026532350121e-09,-3.416313212093583e-06,0.001638239486710343,-1.969235903729925e-05,0.0003200440645732287,0.0005626843832066407,-0.002978488515329505,-0.002875583062858906,5.440563523e-17,0.00110645281,2.16919949746e-07,1087.78374073,2.429550395720722e-09,-2.168120744342183e-07,6.394236636772642e-09,-1.333155748077711e-07,2.183122041943264e-05,-1.770557520896397e-06,0.004252651693383391,0.07919180489924953,-1.43593080766391e-05,6.33922489261455,-0.1099227406467576,-31.4294275086792,2.429550395720722e-09,-2.168120744342183e-07,6.394236636772642e-09,1086.218317523101,-58.33723752830272,1.505031544117993e-07,1.202050288135305e-08,1.557516376181635e-07,1.505031544462381e-07,2.16812457599889e-07,3.64583208885129e-09,5.773278652961336e-09,0.002312463523,3.718489303e-07,0.0001608020739,515.3307275,2116.228,2045.592859,0,0,0,0,0,0,0,0,0.05273832175,           0,-0.01032494063,           0,0.06369013378,           0,-0.01032494063,           0,0.1133088485,0.1342341375,4.318855716,8.7401574936,0,1.8110236248,936.41968068108,0.68772387877107,0.003874593493953696,11.40340041265644,90.00076674161076,0.7036061239209253,-0.07022722720824648,0.0702738682131082,0.7036107890737332,-0.3819603704785646,0.9163778586869304,-0.06301269010270358,0.1019180870578024,-0.3819618382493097,0.9163787661116722,-0.06299949248795599,0.101912586080077,0,0,44.533719491862,44.725800999856,-93.075866,-800004.356542028,-14895792.4759975,14676417.30568976,-800433.4124455189,-14895769.42660938,14676417.30568976,0.001650339282235,0.68772387877107,935.73195680231,400000.000000000233,6.33922536399999004,-0.109916544372331088,-31.4294241208838372,400000.000000000233,0.780612488039265195,-1.62448031584504848,285.420718671593079,6.60844370764461744e-08,1.11124962068187313e-09,1.7596953334226152e-09,400000.000000000233,97943.5179194631201,6.66146617547931864e-15,13.1448486231725621
0.42,1.312190207201506e-05,-3.723480651747317e-08,2.613943876988112e-06,0.0009506222051871199,-8.563307396345113e-06,0.0001850338962975173,0.000592429662648341,-0.002978520760704594,-0.002869552810158241,2.831375496e-17,0.000798196259,1.56486287349e-07,1087.78374073,2.552431950369291e-09,1.563579272685025e-07,-5.800155143353053e-09,-4.823414982471079e-08,1.199748039165671e-05,-1.595888874949427e-07,0.004253367134164435,0.07919978800523719,-8.444627067602517e-06,6.339224977220662,-0.1099325261805258,-31.42942589797968,2.552431950369291e-09,1.563579272685025e-07,-5.800155143353053e-09,1086.218402585535,-58.33565363218785,-1.07123961862805e-07,-4.767154939355965e-09,-1.139723175038706e-07,-1.07123961887346e-07,-1.56358337302134e-07,1.355262995611192e-09,-6.179947587585593e-09,0.002312463523,3.718489303e-07,0.0001608020739,515.3307275,2116.228,2045.592859,0,0,0,0,0,0,0,0,0.05273832175,           0,-0.01032494063,           0,0.06369013378,           0,-0.01032494063,           0,0.1133088485,0.1342341375,4.318855716,8.7401574936,0,1.8110236248,936.41968068108,0.68772387877107,0.003874505614043454,11.40340041165749,90.00076672307648,0.7036061239815319,-0.07022722773033503,0.07027386767873156,0.7036107890144838,-0.3819603697895275,0.9163778589785638,-0.06301269002901053,0.1019180870640347,-0.3819619118759933,0.9163788123430334,-0.06299882418030592,0.1019123075553256,0,0,44.533719491862,44.725800999856,-93.075866,-799982.632174827,-14895793.64272641,14676417.30568976,-800433.412445519,-14895769.42660938,14676417.30568976,0.0017339007648798,0.68772387877107,935.73195680231,420000.000000000291,6.33922516577762618,-0.109928133337851078,-31.4294256787664033,420000.000000000291,0.780612488039265195,-1.62448031584504848,285.420718671593079,-4.76580212096904432e-08,4.13084161062291251e-10,-1.88364802469608887e-09,420000.000000000291,97943.5179194631201,3.4212701518392045e-16,13.1448486231725621
0.44,2.053465759867291e-05,-1.455179695795831e-08,4.095763786623868e-06,0.0001059923539601494,2.105613121700099e-05,3.336258205139501e-05,0.0005998424146648473,-0.0029784980962277,-0.002868070971738725,7.177427739e-17,0.001270853144,2.49150616898e-07,1087.78374073,5.415770137444727e-11,2.478858269768721e-07,-2.507276912840111e-08,2.984881211911405e-07,2.115175333161634e-06,2.3793133332242e-06,0.00425455645621007,0.07920839222354767,-3.096944065264506e-06,6.339225325563463,-0.109942611279083,-31.42942335804616,5.415770137444727e-11,2.478858269768721e-07,-2.507276912840111e-08,1086.218487652043,-58.3340695430802,-1.5947043730493e-07,-1.516551088900347e-08,-1.908277149909113e-07,-1.594704373415054e-07,-2.478874564818507e-07,-4.904189860316169e-09,-2.457209302929925e-08,0.002312463523,3.718489303e-07,0.0001608020739,515.3307275,2116.228,2045.592859,0,0,0,0,0,0,0,0,0.05273832175,           0,-0.01032494063,           0,0.06369013378,           0,-0.01032494063,           0,0.1133088485,0.1342341375,4.318855716,8.7401574936,0,1.8110236248,936.41968068108,0.68772387877107,0.003874875306996802,11.40340041483391,90.00076679508487,0.7036061237640556,-0.07022722552403386,0.07027386992407481,0.7036107892280079,-0.3819603726931387,0.9163778577521463,-0.06301269028797563,0.1019180870496344,-0.3819619890951219,0.9163788570558616,-0.06299815620530415,0.1019120290098314,0,0,44.533719491862,44.725800999856,-93.075866,-799960.9078059247,-14895794.80942364,14676417.30568976,-800433.4124455191,-14895769.42660938,14676417.30568976,0.0018174622475246,0.68772387877107,935.73195680231,440000.000000000291,6.33922464419205056,-0.109942087324557417,-31.4294275300568522,440000.000000000291,0.780612488039265195,-1.62448031584504848,285.420718671593079,-7.55560967356680953e-08,-1.49479706942436835e-09,-7.48957395533041001e-09,440000.000000000291,97943.5179194631201,3.09923608243819449e-15,13.1448486231725621
0.46,2.253171883536236e-05,-7.45533585670899e-08,4.531344982679094e-06,-0.0004264434009694168,8.092796474987554e-06,-0.000102177458054702,0.0006018394714432561,-0.002978558120051843,-0.002867635368356092,8.706499863e-17,0.001399692876,2.74409631873e-07,1087.78374073,1.430946383533455e-09,2.742638716433841e-07,-8.827636624656419e-09,1.074419187247934e-07,-5.613988571392947e-06,2.28165435097318e-07,0.004254040726370237,0.07921236959961112,3.865353069690269e-06,6.339225134394348,-0.109950584052652,-31.42942550837051,1.430946383533455e-09,2.742638716433841e-07,-8.827636624656419e-09,1086.218572730799,-58.33248538456702,-1.892515563426814e-07,-1.100442012415343e-08,-1.984021099313072e-07,-1.892515563861377e-07,-2.742644635612689e-07,-3.426652761169668e-10,-8.91811022564715e-09,0.002312463523,3.718489303e-07,0.0001608020739,515.3307275,2116.228,2045.592859,0,0,0,0,0,0,0,0,0.05273832175,           0,-0.01032494063,           0,0.06369013378,           0,-0.01032494063,           0,0.1133088485,0.1342341375,4.318855716,8.7401574936,0,1.8110236248,936.41968068108,0.68772387877107,0.003875319405644702,11.40340041490294,90.00076688264332,0.7036061234986032,-0.07022722285132889,0.07027387259767173,0.7036107894932873,-0.3819603761824447,0.9163778562823458,-0.06301269059504343,0.1019180869988077,-0.3819620668997414,0.9163789015248207,-0.06299748827837742,0.1019117504278428,0,0,44.533719491862,44.725800999856,-93.075866,-799939.1834353209,-14895795.97608919,14676417.30568975,-800433.4124455195,-14895769.42660939,14676417.30568975,0.0019010237301694,0.68772387877107,935.73195680231,460000.000000000291,6.33922487373804078,-0.109943954889600903,-31.4294257272945998,460000.000000000291,0.780612488039264862,-1.62448031584504848,285.420718671593079,-8.3595808493474759e-08,-1.04444376160451477e-10,-2.7182399967772513e-09,460000.000000000291,97943.5179194631201,4.04779926265509849e-15,13.1448486231725621
0.48,1.280633873914302e-05,-2.070495917379833e-07,2.698597958631322e-06,-0.0006097266484232815,-0.00011725251046487,-0.000174300625615619,0.0005921140871629863,-0.002978690636209346,-0.002869468095563002,3.909507936e-17,0.0009379334032,1.83881738849e-07,1087.78374074,-7.28020350883638e-10,1.715808712894209e-07,6.612086263757609e-08,-1.032177344906691e-07,-1.149678672635046e-05,-2.357847586754149e-06,0.004253334330818424,0.07921475896744519,9.807628405730795e-06,6.339224921122057,-0.1099566848749496,-31.42942809415089,-7.28020350883638e-10,1.715808712894209e-07,6.612086263757609e-08,1086.218657822452,-58.33090109452715,-1.678722477862283e-07,8.369997782564312e-09,-7.457442884220095e-08,-1.6787224782482e-07,-1.715765636950003e-07,1.235946976100472e-08,6.497091801429866e-08,0.002312463523,3.718489303e-07,0.0001608020739,515.3307275,2116.228,2045.592859,0,0,0,0,0,0,0,0,0.05273832175,           0,-0.01032494063,           0,0.06369013378,           0,-0.01032494063,           0,0.1133088485,0.1342341375,4.318855716,8.7401574936,0,1.8110236248,936.41968068108,0.68772387877107,0.003875716860342411,11.40340041043479,90.00076696035595,0.7036061232678006,-0.07022722043112618,0.07027387496304252,0.7036107897294992,-0.3819603793082221,0.9163778549708749,-0.06301269084956043,0.1019180869192832,-0.3819621443406289,0.9163789461516215,-0.06299682029886579,0.1019114718171033,0,0,44.533719491862,44.725800999856,-93.075866,-799917.4590630155,-14895797.14272306,14676417.30568975,-800433.4124455197,-14895769.42660939,14676417.30568975,0.0019845852128142,0.68772387877107,935.73195680231,480000.000000000291,6.3392260427339826,-0.10994765185576541,-31.4294209652807091,480000.000000000291,0.78061248803926464,-1.62448031584504848,285.420718671593079,-5.22965366142361055e-08,3.7671663831542402e-09,1.98031358107582306e-08,480000.000000000291,97943.5179194631201,1.75248080740684606e-15,13.1448486231725621
0.5,1.503689051337622e-06,-8.975130376241849e-07,2.75381681131386e-07,-4.659816751747966e-05,0.0001294860904640993,9.834293390309327e-06,0.0005808114355780727,-0.002979381107779709,-0.002871891303798735,7.563503078e-19,0.00013045852,2.55763782683e-08,1087.78374073,-5.891185636532667e-10,2.203515814538189e-08,1.297134804670663e-08,7.722065059028018e-07,-7.73901387446374e-07,-2.802456885689355e-06,0.004253561417719167,0.07920678145467795,2.590480057157452e-06,6.339225793821074,-0.1099460508884038,-31.42942853900436,-5.891185636532667e-10,2.203515814538189e-08,1.297134804670663e-08,1086.218742885698,-58.32931686002015,-2.470719963925511e-08,1.645954295266992e-09,-6.402831064168262e-09,-2.470719964494155e-08,-2.203430722974719e-08,1.987147502288065e-09,1.283322543956298e-08,0.002312463523,3.718489303e-07,0.0001608020739,515.3307275,2116.228,2045.592859,0,0,0,0,0,0,0,0,0.05273832175,           0,-0.01032494063,           0,0.06369013378,           0,-0.01032494063,           0,0.1133088485,0.1342341375,4.318855716,8.7401574936,0,1.8110236248,936.41968068108,0.68772387877107,0.00387587892414332,11.40340040559352,90.00076699281975,0.703606123170803,-0.07022721942621211,0.0702738759085146,0.7036107898324614,-0.3819603805839012,0.9163778544389214,-0.06301269094951673,0.1019180868600791,-0.381962219931215,0.9163789915574502,-0.0629961521647478,0.1019111932266588,0,0,44.533719491862,44.725800999856,-93.075866,-799895.7346890083,-14895798.30932524,14676417.30568975,-800433.4124455195,-14895769.42660939,14676417.30568975,0.002068146695459,0.68772387877107,935.73195680231,500000.000000000349,6.33922470139031269,-0.109950486523586424,-31.4294289661167952,500000.000000000349,0.780612488039264529,-1.62448031584504848,285.420718671593079,-6.71605684362694509e-09,6.05682558697402242e-10,3.91156711397879718e-09,500000.000000000349,97943.5179194631201,4.6995857363542664e-16,13.1448486231725621
0.52,-8.059178548180962e-07,-5.334699843067836e-07,-1.410676576867424e-07,9.109074144811261e-05,-8.428930114954415e-05,2.354739263534761e-05,0.000578501827813151,-0.002979017065176877,-0.002872307752844411,7.8273924e-20,4.196811918e-05,8.22784507425e-09,1087.78374073,5.57398275491377e-09,-2.822879356708399e-09,-5.353457102768802e-09,-1.598565800710291e-06,6.85029509089885e-08,1.506336601526496e-05,0.004255308226695381,0.07921893350436662,-1.062041299980387e-05,6.339223414701572,-0.1099452134095426,-31.42941067485191,5.57398275491377e-09,-2.822879356708399e-09,-5.353457102768802e-09,1086.218827955977,-58.32773268993731,6.465412417118679e-09,4.262469904233924e-09,-2.779789048506189e-09,6.465412418608432e-09,2.822458230769586e-09,4.405487718250248e-09,-6.350026935478168e-09,0.002312463523,3.718489303e-07,0.0001608020739,515.3307275,2116.228,2045.592859,0,0,0,0,0,0,0,0,0.05273832175,           0,-0.01032494063,           0,0.06369013378,           0,-0.01032494063,           0,0.1133088485,0.1342341375,4.318855716,8.7401574936,0,1.8110236248,936.4196806848,0.68772388249636,0.00387588790220587,11.40340039038442,90.00076699470539,0.7036061231740957,-0.07022721927885038,0.07027387586909593,0.7036107898479086,-0.3819603806627591,0.9163778544227916,-0.06301269090598768,0.1019180867370022,-0.3819622943247755,0.9163790374786127,-0.06299548388710206,0.101910914572308,0,0,44.533719491862,44.725800999856,-93.075866,-799874.0103132998,-14895799.47589573,14676417.30568975,-800433.4124455194,-14895769.42660939,14676417.30568975,0.0021517081781038,0.68772388249636,935.73195680231,520000.000000000349,6.33922558754338983,-0.109944966879258352,-31.4294323893211072,520000.000000000349,0.780612488039264418,-1.62448031584504848,285.420718672728526,8.60285268738569993e-10,1.34279265652267574e-09,-1.93548820993374572e-09,520000.000000000349,97943.5179194498342,6.58192031234256413e-17,13.1448486231651724
0.54,-3.139621772123762e-06,-5.545514467949585e-08,-6.662793972024751e-07,-0.0001635722262072622,7.425309815574076e-05,-1.874712350454791e-05,0.0005761681234721403,-0.002978539048956859,-0.002872832966101682,3.912079407e-18,0.000296698113,5.81676318841e-08,1087.78374073,-1.102587509962605e-08,-4.221375185928193e-08,3.84695026124607e-08,-4.959765982216056e-07,-9.563489176134254e-07,1.863602845468642e-06,0.00425320151968865,0.07921037329925637,-6.629094455173901e-07,6.33922450963489,-0.1099462231510389,-31.42942387621727,-1.102587509962605e-08,-4.221375185928193e-08,3.84695026124607e-08,1086.21891301698,-58.32614846244498,2.119342156915954e-09,-8.322472805180254e-11,5.812895029367644e-08,2.119342157404861e-09,4.22163969661276e-08,-3.20220006824052e-09,3.988728045005719e-08,0.002312463523,3.718489303e-07,0.0001608020739,515.3307275,2116.228,2045.592859,0,0,0,0,0,0,0,0,0.05273832175,           0,-0.01032494063,           0,0.06369013378,           0,-0.01032494063,           0,0.1133088485,0.1342341375,4.318855716,8.7401574936,0,1.8110236248,936.41968068108,0.68772387877107,0.003875860356847439,11.40340037642543,90.00076698928277,0.7036061231991129,-0.07022721935894094,0.07027387561757208,0.7036107898401139,-0.3819603804540388,0.9163778545264146,-0.06301269084053254,0.1019180866285087,-0.3819623684305549,0.9163790835190403,-0.06299481558749442,0.1019106359324918,0,0,44.533719491862,44.725800999856,-93.075866,-799852.28593589,-14895800.64243454,14676417.30568975,-800433.4124455192,-14895769.42660939,14676417.30568975,0.0022352696607486,0.68772387877107,935.73195680231,540000.000000000349,6.33922433075724179,-0.109947655661571414,-31.4294297854683933,540000.000000000349,0.780612488039264529,-1.62448031584504848,285.420718671593079,1.28675577952756931e-08,-9.76030580799710449e-10,1.21576430811774315e-08,540000.000000000349,97943.5179194631201,3.70474119572193612e-16,13.1448486231725621
0.56,-2.104935949468296e-06,1.938694813444133e-07,-4.191685807291108e-07,7.863895212091728e-05,9.221662030377286e-05,7.510248647117975e-06,0.0005772028100992731,-0.002978289720527505,-0.002872585859067872,1.107771182e-18,0.0001578832236,3.09529883292e-08,1087.78374073,-1.475702053952903e-09,-2.929253167342308e-08,9.89228882093669e-09,-1.380702166638371e-06,1.389121387196379e-06,-1.621880663094221e-06,0.004251319742683284,0.07920651280622251,-6.156982602922856e-08,6.339223625518058,-0.1099438360578744,-31.42942736172756,-1.475702053952903e-09,-2.929253167342308e-08,9.89228882093669e-09,1086.218998082099,-58.32456432627006,1.387723984201694e-08,1.992910242380774e-09,2.759597814487891e-08,1.38772398452219e-08,2.929319396084342e-08,5.092884749058409e-10,9.986836313386227e-09,0.002312463523,3.718489303e-07,0.0001608020739,515.3307275,2116.228,2045.592859,0,0,0,0,0,0,0,0,0.05273832175,           0,-0.01032494063,           0,0.06369013378,           0,-0.01032494063,           0,0.1133088485,0.1342341375,4.318855716,8.7401574936,0,1.8110236248,936.41968068108,0.68772387877107,0.003875784477359855,11.40340037747816,90.00076697452617,0.7036061232426211,-0.07022721982225984,0.0702738751671623,0.7036107897954424,-0.38196037985716,0.9163778547766762,-0.06301269079328253,0.1019180866449953,-0.3819624421479749,0.9163791297056193,-0.06299414730605529,0.1019103574176098,0,0,44.533719491862,44.725800999856,-93.075866,-799830.5615567791,-14895801.80894167,14676417.30568975,-800433.4124455194,-14895769.42660939,14676417.30568975,0.0023188311433934,0.68772387877107,935.73195680231,560000.000000000349,6.33922551080143393,-0.109944398453976605,-31.4294265307196703,560000.000000000349,0.780612488039264529,-1.62448031584504848,285.420718671593079,8.92856551926507506e-09,1.55231127151300331e-10,3.0439877083201222e-09,560000.000000000349,97943.5179194631201,5.14965417412792808e-17,13.1448486231725621
0.58,-1.284448609455915e-06,-4.699928885135462e-08,-2.842815516932313e-07,-0.0002328432125108025,9.786907775819313e-05,-5.652278409267089e-05,0.0005780232982994979,-0.002978530586962122,-0.002872450974288173,1.04236987e-17,0.0004843082623,9.49485806815e-08,1087.78374073,-1.782351970661459e-08,-2.26157271494623e-08,9.047698052098451e-08,-1.462435531300991e-07,-2.030085843970908e-06,-5.06736774512282e-06,0.004251722459885977,0.07920630699559938,4.915656921927747e-06,6.33922486433015,-0.1099472297031059,-31.42943080643033,-1.782351970661459e-08,-2.26157271494623e-08,9.047698052098451e-08,1086.219083145629,-58.32298010557543,-4.854621874823805e-08,4.794861000319483e-09,8.145862095356199e-08,-4.854621875946272e-08,2.262184178035116e-08,4.170298048437406e-10,9.221340106577088e-08,0.002312463523,3.718489303e-07,0.0001608020739,515.3307275,2116.228,2045.592859,0,0,0,0,0,0,0,0,0.05273832175,           0,-0.01032494063,           0,0.06369013378,           0,-0.01032494063,           0,0.1133088485,0.1342341375,4.318855716,8.7401574936,0,1.8110236248,936.41968068108,0.68772387877107,0.003875737877603521,11.40340038539841,90.00076696543245,0.7036061232650934,-0.0702272201514384,0.07027387493523146,0.7036107897633742,-0.3819603794866349,0.916377854923913,-0.06301269078826677,0.1019180867133875,-0.3819625160915468,0.9163791757886871,-0.06299347906681871,0.1019100789545752,0,0,44.533719491862,44.725800999856,-93.075866,-799808.8371759668,-14895802.97541712,14676417.30568975,-800433.4124455192,-14895769.42660939,14676417.30568975,0.0024023926260382,0.68772387877107,935.73195680231,580000.000000000349,6.33922488604443846,-0.109945361844163397,-31.4294232981338411,580000.000000000349,0.780612488039264529,-1.62448031584504848,285.420718671593079,6.89513737465103424e-09,1.27110684516372145e-10,2.81066446448469674e-08,580000.000000000349,97943.5179194631201,4.92133104677534374e-16,13.1448486231725621
